City_ID,City,Lat,Lng,Max Temp,Humidity,Cloudiness,Wind Speed,Country,Date
0,fort nelson,58.8053,-122.7002,-5.23,85,100,2.57,CA,1680326241
1,fort frances,48.5999,-93.4003,-3.24,43,0,4.12,CA,1680325979
2,bambanglipuro,-7.95,110.2833,29.21,69,93,4.4,ID,1680326241
3,baykit,61.67,96.37,-9.63,75,54,1.49,RU,1680326241
4,ushuaia,-54.8,-68.3,7.81,61,75,2.06,AR,1680326242
5,mahebourg,-20.4081,57.7,28.47,75,10,6.16,MU,1680326242
6,hilo,19.7297,-155.09,23.85,84,100,3.13,US,1680325959
7,leningradskiy,69.3833,178.4167,-13.07,95,100,1.71,RU,1680326242
8,pimentel,-6.8367,-79.9342,27.16,78,0,2.06,PE,1680326242
9,barrow,71.2906,-156.7887,-15.99,92,100,1.54,US,1680326238
10,kutum,14.2,24.6667,16.19,18,100,5.17,SD,1680326242
11,acarau,-2.8856,-40.12,24.26,86,98,2.9,BR,1680326242
12,avarua,-21.2078,-159.775,26.03,94,40,2.06,CK,1680326242
13,oktyabrskoye,43.0645,44.7417,3.08,86,75,1.0,RU,1680326243
14,busselton,-33.65,115.3333,24.35,52,30,3.3,AU,1680326156
15,bilma,18.6853,12.9164,20.09,10,47,6.33,NE,1680326243
16,bathsheba,13.2167,-59.5167,25.34,83,40,7.72,BB,1680326243
17,mogadishu,2.0371,45.3438,28.07,68,54,2.47,SO,1680326089
18,saint george,37.1041,-113.5841,10.33,53,0,0.89,US,1680326243
19,wichita falls,33.9137,-98.4934,16.08,31,0,6.17,US,1680326093
20,luderitz,-26.6481,15.1594,14.85,90,0,1.17,NA,1680326243
21,nikolskoye,59.7035,30.7861,-1.06,98,100,3.02,RU,1680326243
22,carlet,39.2333,-0.5167,17.82,54,100,1.79,ES,1680326243
23,humberto de campos,-2.5983,-43.4611,23.64,94,100,1.46,BR,1680326244
24,paamiut,61.994,-49.6678,-6.45,53,88,2.45,GL,1680326244
25,mataura,-46.1927,168.8643,19.9,68,8,0.98,NZ,1680326244
26,serowe,-22.3833,26.7167,15.55,91,2,3.12,BW,1680326244
27,ponta delgada,37.7333,-25.6667,16.4,100,75,3.6,PT,1680326244
28,rikitea,-23.1203,-134.9692,26.68,76,66,4.34,PF,1680326244
29,beira,-19.8436,34.8389,26.05,83,75,1.54,MZ,1680326244
30,fukue,32.6881,128.8419,21.2,40,75,3.6,JP,1680326244
31,port lincoln,-34.7333,135.8667,16.82,52,64,6.0,AU,1680326244
32,kamyshin,50.0983,45.416,5.23,66,16,5.06,RU,1680326245
33,venado tuerto,-33.7456,-61.9688,8.81,51,0,3.36,AR,1680326245
34,cidreira,-30.1811,-50.2056,19.71,67,94,9.07,BR,1680326245
35,butaritari,3.0707,172.7902,27.26,74,100,1.34,KI,1680326245
36,albany,42.6001,-73.9662,6.95,80,100,1.08,US,1680326006
37,ambulu,-8.345,113.6058,28.1,65,100,1.23,ID,1680326245
38,bluff,-46.6,168.3333,15.63,79,30,1.81,NZ,1680326245
39,mnogovershinnyy,53.9353,139.9242,2.12,84,56,2.88,RU,1680326245
40,saskylakh,71.9167,114.0833,-17.19,90,56,5.61,RU,1680326245
41,atuona,-9.8,-139.0333,27.2,76,8,4.77,PF,1680326245
42,kahului,20.8947,-156.47,24.43,73,0,2.68,US,1680326246
43,karratha,-20.7377,116.8463,30.68,57,42,4.98,AU,1680326246
44,punta arenas,-53.15,-70.9167,5.62,81,0,0.0,CL,1680325687
45,wanaka,-44.7,169.15,15.06,87,94,2.96,NZ,1680326246
46,port alfred,-33.5906,26.891,16.42,76,1,1.87,ZA,1680326246
47,qaanaaq,77.484,-69.3632,-26.56,67,4,3.24,GL,1680326246
48,puerto ayora,-0.7393,-90.3518,25.31,95,35,1.77,EC,1680326246
49,ponta do sol,32.6667,-17.1,17.85,59,2,2.96,PT,1680326246
50,colimes,-1.55,-80.0167,23.46,96,100,0.9,EC,1680326168
51,vaini,-21.2,-175.2,28.09,78,20,4.12,TO,1680326246
52,pevek,69.7008,170.3133,-13.49,94,100,6.75,RU,1680326247
53,kaitangata,-46.2817,169.8464,17.26,72,11,2.13,NZ,1680326247
54,hobart,-42.8794,147.3294,17.37,54,75,2.06,AU,1680326247
55,saryozek,44.3583,77.9753,3.36,24,0,4.46,KZ,1680326247
56,siedlce,52.1677,22.2901,7.88,95,97,3.64,PL,1680325731
57,savonlinna,61.8699,28.88,-15.97,85,20,0.0,FI,1680326247
58,vardo,70.3705,31.1107,-1.01,93,100,15.43,NO,1680326247
59,katsuura,35.1333,140.3,18.14,66,2,5.1,JP,1680326247
60,jamestown,42.097,-79.2353,11.77,87,100,4.12,US,1680326138
61,codrington,-38.2667,141.9667,15.11,48,76,5.43,AU,1680326247
62,sao joao da barra,-21.6403,-41.0511,23.76,86,99,2.13,BR,1680326247
63,bengkulu,-3.8004,102.2655,28.55,66,97,2.59,ID,1680326205
64,luganville,-15.5333,167.1667,28.4,78,64,2.73,VU,1680326248
65,esmeralda,21.8525,-78.1169,23.44,79,1,4.17,CU,1680326248
66,inhambane,-23.865,35.3833,22.99,94,40,1.33,MZ,1680326248
67,kavieng,-2.5744,150.7967,27.27,77,98,3.0,PG,1680326248
68,chuy,-33.6971,-53.4616,13.54,67,27,5.21,UY,1680326248
69,salamiyah,35.0113,37.0532,8.58,68,12,6.97,SY,1680326248
70,clyde river,70.4692,-68.5914,-22.87,84,100,6.69,CA,1680326248
71,saravan,39.7196,45.6483,-2.32,95,100,2.14,AM,1680326249
72,margate,51.3813,1.3862,9.39,91,100,2.68,GB,1680326249
73,bethel,41.3712,-73.414,9.31,78,100,2.06,US,1680326249
74,san patricio,28.017,-97.5169,24.05,87,97,4.34,US,1680326249
75,kodiak,57.79,-152.4072,0.73,55,0,6.17,US,1680326249
76,kapaa,22.0752,-159.319,22.99,92,100,3.09,US,1680326249
77,namatanai,-3.6667,152.4333,25.94,76,100,4.13,PG,1680326249
78,hithadhoo,-0.6,73.0833,28.06,75,12,2.63,MV,1680326249
79,kalocsa,46.5264,18.9858,9.86,88,100,3.59,HU,1680326249
80,hermanus,-34.4187,19.2345,15.45,87,0,3.7,ZA,1680326250
81,kavaratti,10.5669,72.642,27.33,68,10,4.1,IN,1680326250
82,hirara,24.8,125.2833,21.15,83,75,6.17,JP,1680326250
83,east london,-33.0153,27.9116,16.91,76,0,1.39,ZA,1680325915
84,souillac,-20.5167,57.5167,27.44,74,6,5.77,MU,1680326239
85,hasaki,35.7333,140.8333,19.22,60,9,7.57,JP,1680326250
86,saint-pierre,-21.3393,55.4781,29.2,70,0,3.09,RE,1680326250
87,flinders,-34.5833,150.8552,18.92,68,100,6.04,AU,1680326250
88,sabha,27.0377,14.4283,15.06,16,0,2.97,LY,1680326250
89,arraial do cabo,-22.9661,-42.0278,24.92,88,20,2.06,BR,1680326250
90,saint-louis,16.3333,-15.0,26.33,8,16,5.25,SN,1680326250
91,high prairie,55.4334,-116.4858,-0.04,97,99,1.4,CA,1680326251
92,cabo san lucas,22.8909,-109.9124,23.06,69,100,2.8,MX,1680325545
93,petropavlovsk-kamchatskiy,53.0452,158.6483,5.33,56,0,2.0,RU,1680326251
94,tuktoyaktuk,69.4541,-133.0374,-21.0,77,20,6.69,CA,1680326251
95,ondjiva,-17.0667,15.7333,18.7,81,71,2.15,AO,1680326251
96,new norfolk,-42.7826,147.0587,17.18,54,98,1.79,AU,1680326251
97,airai,-8.9266,125.4092,20.71,82,100,0.93,TL,1680326251
98,tuatapere,-46.1333,167.6833,18.6,69,54,2.18,NZ,1680326251
99,vaitape,-16.5167,-151.75,28.48,68,100,2.62,PF,1680326252
100,nampula,-15.1165,39.2666,21.97,94,75,4.63,MZ,1680326252
101,matamoros,25.5333,-103.25,24.5,20,100,5.16,MX,1680326252
102,georgetown,5.4112,100.3354,32.96,66,20,4.12,MY,1680326114
103,cockburn town,21.4612,-71.1419,25.11,71,2,10.08,TC,1680325955
104,thompson,55.7435,-97.8558,-12.11,96,100,2.73,CA,1680326101
105,samarai,-10.6167,150.6667,28.99,72,100,5.78,PG,1680326252
106,svetlaya,46.5389,138.3297,3.85,69,3,2.29,RU,1680326252
107,peterhead,57.5058,-1.7981,5.22,76,100,6.6,GB,1680326252
108,thinadhoo,0.5333,72.9333,27.98,70,55,2.6,MV,1680325890
109,ampanihy,-24.7,44.75,23.01,86,78,4.69,MG,1680326252
110,sorland,67.667,12.6934,1.92,69,96,7.8,NO,1680326253
111,san cristobal,7.7669,-72.225,21.1,82,100,0.76,VE,1680326253
112,raudeberg,61.9875,5.1352,0.37,64,0,1.79,NO,1680326253
113,mar del plata,-38.0023,-57.5575,14.41,69,75,1.54,AR,1680326253
114,abu dhabi,24.4667,54.3667,27.01,61,0,0.51,AE,1680326229
115,lakhimpur,27.95,80.7667,25.17,45,99,1.05,IN,1680326253
116,kadoma,34.7333,135.5833,24.22,18,1,2.37,JP,1680326135
117,geraldton,-28.7667,114.6,27.23,61,75,5.14,AU,1680326253
118,grindavik,63.8424,-22.4338,3.26,81,75,5.14,IS,1680326253
119,torbay,47.6666,-52.7314,-2.63,92,52,4.02,CA,1680326116
120,bilibino,68.0546,166.4372,-12.12,93,100,7.53,RU,1680326253
121,khatanga,71.9667,102.5,-9.89,94,100,7.71,RU,1680326253
122,pilar,-9.5972,-35.9567,21.96,89,19,0.86,BR,1680326254
123,tapes,-30.6733,-51.3958,16.38,63,42,7.22,BR,1680326254
124,ribeira grande,38.5167,-28.7,17.1,97,100,6.71,PT,1680326254
125,tsabong,-26.0217,22.401,20.22,58,30,4.83,BW,1680326254
126,tiksi,71.6872,128.8694,-20.5,85,100,6.35,RU,1680326254
127,yellowknife,62.456,-114.3525,-16.71,60,75,8.75,CA,1680325536
128,tasiilaq,65.6145,-37.6368,-1.91,75,100,1.96,GL,1680326254
129,puerto suarez,-18.95,-57.8,23.38,88,48,1.19,BO,1680326254
130,yulara,-25.2406,130.9889,25.96,45,100,6.03,AU,1680326254
131,castro,-24.7911,-50.0119,16.61,85,0,1.72,BR,1680326255
132,klobuck,50.9008,18.9367,7.36,88,89,4.6,PL,1680326255
133,jiangkou,25.4872,119.1986,19.02,76,86,3.13,CN,1680326255
134,mehamn,71.0357,27.8492,-1.05,93,100,11.32,NO,1680326255
135,mocuba,-16.8392,36.9856,21.15,95,100,1.11,MZ,1680326255
136,cape town,-33.9258,18.4232,18.54,76,1,5.81,ZA,1680325622
137,praya,14.9215,-23.5087,27.3,19,0,5.66,CV,1680326255
138,upernavik,72.7868,-56.1549,-30.86,97,29,3.86,GL,1680326255
139,turukhansk,65.8167,87.9833,-12.95,84,100,10.08,RU,1680326255
140,bredasdorp,-34.5322,20.0403,14.95,93,3,2.27,ZA,1680326255
141,boende,-0.2167,20.8667,20.98,87,100,0.95,CD,1680326149
142,luena,-11.7833,19.9167,15.99,96,98,0.52,AO,1680326255
143,ambilobe,-13.2,49.05,24.65,92,100,0.79,MG,1680326256
144,sao jose da coroa grande,-8.8978,-35.1478,23.76,83,10,1.81,BR,1680326256
145,aklavik,68.2191,-135.0107,-16.54,95,100,2.18,CA,1680326256
146,dikson,73.5069,80.5464,-5.11,94,100,10.81,RU,1680326256
147,arlit,18.7369,7.3853,21.17,13,9,4.7,NE,1680326256
148,lavrentiya,65.5833,-171.0,-12.72,92,22,1.64,RU,1680326256
149,severo-kurilsk,50.6789,156.125,0.74,70,11,4.48,RU,1680326256
150,lahij,13.1667,44.5833,25.46,82,58,1.37,YE,1680326256
151,vao,-22.6667,167.4833,25.99,77,8,4.66,NC,1680326256
152,huallanca,-9.8993,-76.9417,7.33,93,100,1.47,PE,1680326256
153,tezu,27.9167,96.1667,28.0,37,99,2.37,IN,1680326257
154,kita,13.0349,-9.4895,25.68,10,79,2.15,ML,1680325853
155,kasane,-17.8167,25.15,16.93,95,3,2.01,BW,1680326257
156,victoria,22.2855,114.1577,25.67,86,100,4.47,HK,1680325783
157,mana,5.6592,-53.7767,24.25,88,91,4.18,GF,1680326257
158,tabuk,17.4189,121.4443,31.68,55,15,2.97,PH,1680326257
159,neiafu,-18.65,-173.9833,28.38,74,40,2.06,TO,1680326257
160,esso,55.9333,158.7,1.67,77,9,1.81,RU,1680326257
161,bandarbeyla,9.4942,50.8122,27.38,71,71,2.23,SO,1680326257
162,port hardy,50.6996,-127.4199,5.0,100,75,3.09,CA,1680326257
163,adrar,20.5022,-10.0711,21.45,9,0,5.76,MR,1680326257
164,whitehorse,60.7161,-135.0538,-8.47,96,100,1.32,CA,1680326018
165,diffa,13.3154,12.6113,23.04,24,48,4.28,NE,1680326258
166,grand-santi,4.25,-54.3833,21.58,95,82,0.64,GF,1680326258
167,areka,7.0667,37.7,16.0,88,100,1.03,ET,1680326258
168,pacific grove,36.6177,-121.9166,9.82,84,0,0.89,US,1680326258
169,gotera,8.9821,38.7585,14.16,88,75,2.06,ET,1680326258
170,brasileia,-11.0161,-68.7481,22.64,99,99,0.59,BR,1680325960
171,labuhan,-6.8844,112.2051,28.15,69,100,1.21,ID,1680326258
172,chebsara,59.2002,38.8356,-2.37,88,100,2.88,RU,1680326258
173,sungaipenuh,-2.0833,101.3833,22.76,77,100,1.75,ID,1680326258
174,grand gaube,-20.0064,57.6608,28.54,71,8,4.47,MU,1680326258
175,mackay,-21.15,149.2,27.75,74,29,3.81,AU,1680325962
176,pemangkat,1.1667,108.9667,27.99,71,98,1.93,ID,1680326259
177,nome,64.5011,-165.4064,-8.96,79,0,5.66,US,1680326259
178,ville-marie,47.3335,-79.433,-1.95,96,100,2.9,CA,1680326259
179,hohhot,40.8106,111.6522,19.16,32,0,3.0,CN,1680326259
180,klaksvik,62.2266,-6.589,5.51,86,100,8.49,FO,1680326259
181,puerto el triunfo,13.2833,-88.55,25.91,58,2,1.56,SV,1680326259
182,talas,38.6908,35.5538,-1.63,86,75,2.06,TR,1680326259
183,saint-philippe,-21.3585,55.7679,28.77,79,42,5.72,RE,1680326259
184,zhuhai,22.2769,113.5678,21.88,88,40,4.12,CN,1680326259
185,pimenteiras,-6.2453,-41.4192,19.96,74,58,1.6,BR,1680326259
186,sao filipe,14.8961,-24.4956,24.7,65,3,4.26,CV,1680326259
187,spanish fork,40.115,-111.6549,4.37,69,0,3.09,US,1680326115
188,mtsamboro,-12.6998,45.0689,29.62,76,100,4.87,YT,1680326259
189,isabela,6.7085,121.9711,26.03,68,98,2.96,PH,1680326260
190,johnstown,40.3267,-78.922,16.07,78,100,6.69,US,1680326260
191,gloversville,43.0528,-74.3438,4.3,95,100,2.57,US,1680326260
192,charters towers,-20.1,146.2667,34.49,21,17,3.13,AU,1680326260
193,amga,60.8953,131.9608,-4.79,92,100,4.29,RU,1680326260
194,asau,46.4333,26.4,3.51,84,89,1.92,RO,1680325714
195,cairns,-16.9167,145.7667,30.62,75,74,4.12,AU,1680326198
196,biak,-0.9131,122.8766,25.75,79,98,1.51,ID,1680326260
197,sisimiut,66.9395,-53.6735,-16.34,65,40,4.49,GL,1680326260
198,burnie,-41.0667,145.9167,17.47,50,37,4.23,AU,1680326260
199,gornopravdinsk,60.05,69.9,-0.16,74,100,5.8,RU,1680326261
200,saldanha,-33.0117,17.9442,14.03,76,1,4.27,ZA,1680326261
201,lac du bonnet,50.2536,-96.0612,-7.93,93,17,2.15,CA,1680326115
202,hami,42.8,93.45,5.32,50,100,3.21,CN,1680326261
203,cap-aux-meules,47.3821,-61.8597,-0.99,93,44,4.12,CA,1680326261
204,esperance,-33.8667,121.9,21.56,55,100,5.45,AU,1680326261
205,yar-sale,66.8333,70.8333,-1.39,93,100,7.42,RU,1680326261
206,soyo,-6.1349,12.3689,25.8,83,99,3.34,AO,1680326261
207,coxim,-18.5067,-54.76,23.11,87,5,1.42,BR,1680326261
208,ahipara,-35.1667,173.1667,20.08,91,99,3.97,NZ,1680326261
209,mitsamiouli,-11.3847,43.2844,27.84,76,51,2.25,KM,1680326261
210,santa rosa,14.3122,121.1114,32.84,49,44,4.62,PH,1680326132
211,porosozero,62.7191,32.727,-7.79,96,73,1.24,RU,1680326262
212,veshkayma,54.05,47.1333,2.64,74,95,7.93,RU,1680326262
213,ingham,42.6,-84.3833,14.1,93,100,6.69,US,1680326216
214,carnarvon,-24.8667,113.6333,26.95,58,29,3.75,AU,1680326262
215,marzuq,14.4,46.4667,23.97,65,64,2.61,YE,1680326262
216,fortuna,40.5982,-124.1573,10.75,72,100,4.02,US,1680326262
217,zatoka,46.0725,30.4654,8.11,87,49,3.48,UA,1680326262
218,oistins,13.0667,-59.5333,25.05,83,40,7.72,BB,1680325849
219,half moon bay,37.4636,-122.4286,10.46,81,0,0.0,US,1680326262
220,avera,33.194,-82.5271,19.19,78,77,5.16,US,1680326263
221,roxana,10.2753,-83.7513,24.46,96,27,1.58,CR,1680326263
222,chesterville,44.5512,-70.0862,0.77,96,100,2.3,US,1680326263
223,beloha,-25.1667,45.05,24.13,81,68,4.61,MG,1680326263
224,puerto leguizamo,-0.1934,-74.7819,21.28,99,99,0.84,CO,1680326263
225,jutai,-5.1833,-68.9,22.41,99,100,1.2,BR,1680326263
226,wajir,1.7471,40.0573,27.05,60,91,4.71,KE,1680326263
227,pindiga,9.9833,10.9333,24.61,16,86,3.03,NG,1680326263
228,matay,28.419,30.7792,12.06,62,0,3.99,EG,1680326263
229,hambantota,6.1241,81.1185,30.74,59,2,2.57,LK,1680326264
230,chapais,49.7834,-74.8492,-10.12,98,71,1.3,CA,1680326264
231,shu,43.5983,73.7614,10.32,18,1,8.8,KZ,1680326264
232,aswan,24.0934,32.907,13.61,44,0,3.6,EG,1680326264
233,tazovskiy,67.4667,78.7,-3.0,92,100,8.78,RU,1680326264
234,te anau,-45.4167,167.7167,15.45,84,69,2.65,NZ,1680326264
235,antalaha,-14.9003,50.2788,27.35,73,90,3.71,MG,1680326264
236,ginda,30.6945,78.4932,8.44,95,100,0.78,IN,1680326264
237,alofi,-19.0595,-169.9187,26.94,83,8,3.6,NU,1680326264
238,minsk mazowiecki,52.1794,21.5725,10.22,96,95,3.43,PL,1680326264
239,san quintin,30.4833,-115.95,13.1,79,82,4.33,MX,1680326265
240,longyearbyen,78.2186,15.6401,-11.09,79,75,4.63,SJ,1680326265
241,lerwick,60.1545,-1.1494,3.0,83,92,1.51,GB,1680326265
242,kaeo,-35.1,173.7833,22.4,87,99,3.65,NZ,1680326265
243,kushmurun,52.4503,64.6311,1.06,73,18,5.72,KZ,1680326265
244,green river,41.5286,-109.4662,-0.78,65,61,0.89,US,1680326265
245,chapada dos guimaraes,-15.4606,-55.7497,19.81,67,48,0.35,BR,1680326265
246,portland,45.5234,-122.6762,7.97,91,100,7.15,US,1680325520
247,havoysund,70.9963,24.6622,-0.87,67,100,11.54,NO,1680326265
248,ballina,-28.8667,153.5667,23.21,60,100,2.2,AU,1680326265
249,talcahuano,-36.7167,-73.1167,11.82,76,0,2.06,CL,1680326265
250,pyay,18.8167,95.2167,36.84,29,6,2.98,MM,1680326265
251,tautira,-17.7333,-149.15,28.12,68,100,1.66,PF,1680326266
252,nuuk,64.1835,-51.7216,-8.76,63,6,3.46,GL,1680326266
253,la ronge,55.1001,-105.2842,-1.86,74,100,4.63,CA,1680326266
254,roald,62.5833,6.1333,1.85,64,0,0.51,NO,1680326266
255,golspie,57.9727,-3.978,4.08,93,100,3.09,GB,1680326266
256,lagoa,39.05,-27.9833,15.85,90,100,4.72,PT,1680326178
257,hobyo,5.3505,48.5268,29.06,71,79,2.8,SO,1680326266
258,yenagoa,4.9247,6.2642,24.31,90,97,2.08,NG,1680326266
259,ewa beach,21.3156,-158.0072,25.97,78,100,2.68,US,1680326015
260,batamshinskiy,50.5594,58.2747,6.86,48,97,9.23,KZ,1680326266
261,boa vista,2.8197,-60.6733,26.99,69,0,4.63,BR,1680325963
262,ahuatempan,18.4167,-98.0167,20.82,52,83,2.42,MX,1680326266
263,chokurdakh,70.6333,147.9167,-26.27,94,78,3.2,RU,1680326267
264,terrace,54.5163,-128.6035,2.95,93,75,8.23,CA,1680326267
265,guerrero negro,27.9769,-114.0611,13.88,76,17,5.26,MX,1680325746
266,sorong,-0.8833,131.25,29.41,65,79,3.43,ID,1680326267
267,key west,24.5557,-81.7826,26.11,75,20,7.72,US,1680326267
268,bridlington,54.0831,-0.1919,7.16,83,100,8.67,GB,1680326267
269,alice springs,-23.7,133.8833,16.75,94,100,4.12,AU,1680326267
270,bako,5.7833,36.5667,17.18,92,100,1.84,ET,1680326267
271,solnechnyy,50.7214,136.6319,6.91,55,17,3.13,RU,1680326267
272,aksu,41.1231,80.2644,16.19,9,0,0.46,CN,1680326267
273,isangel,-19.55,169.2667,28.11,74,37,1.04,VU,1680326267
274,anito,12.4497,125.2886,29.36,68,97,3.86,PH,1680326267
275,libertador general san martin,-23.8064,-64.7876,21.38,99,86,0.57,AR,1680326267
276,dingle,10.9995,122.6711,32.32,48,90,5.48,PH,1680326268
277,nelson bay,-32.7167,152.15,22.03,73,8,5.81,AU,1680326268
278,derzhavinsk,51.1,66.3167,5.03,32,28,8.58,KZ,1680326268
279,port elizabeth,-33.918,25.5701,14.06,83,0,1.54,ZA,1680326268
280,severomuysk,56.1481,113.4267,-14.16,68,99,3.17,RU,1680326268
281,san esteban,15.2,-85.75,18.89,97,16,1.53,HN,1680326268
282,banda aceh,5.5577,95.3222,29.98,62,52,1.74,ID,1680326268
283,taoudenni,22.6783,-3.9836,23.12,11,0,4.19,ML,1680326268
284,tiarei,-17.5333,-149.3333,28.01,71,100,3.41,PF,1680326268
285,santa maria,-29.6842,-53.8069,14.53,87,37,2.88,BR,1680326268
286,cumberland,35.0502,-78.8664,20.83,82,0,6.69,US,1680326268
287,chabahar,25.2919,60.643,25.05,64,5,1.02,IR,1680326268
288,wairoa,-39.0333,177.3667,20.86,71,100,1.34,NZ,1680326269
289,champerico,14.3,-91.9167,27.81,68,2,2.08,GT,1680326269
290,afsin,38.2477,36.914,0.34,49,53,0.1,TR,1680326269
291,den helder,52.9599,4.7593,9.45,95,100,4.12,NL,1680326015
292,provideniya,64.3833,-173.3,-2.55,93,71,4.64,RU,1680326269
293,west wendover,40.7391,-114.0733,4.56,45,0,1.54,US,1680326269
294,hualmay,-11.0964,-77.6139,24.29,85,98,3.32,PE,1680326269
295,henties bay,-22.116,14.2845,14.1,92,31,0.96,NA,1680326269
296,sept-iles,50.2001,-66.3821,-3.0,89,75,1.03,CA,1680326269
297,plettenberg bay,-34.0527,23.3716,15.01,65,19,1.32,ZA,1680326269
298,dinan,48.4167,-2.25,9.01,88,97,7.56,FR,1680326269
299,ornskoldsvik,63.2909,18.7153,-5.47,73,50,2.06,SE,1680326269
300,sovetskiy,61.3614,63.5842,0.63,88,100,5.91,RU,1680326269
301,abay,49.6311,72.8539,1.21,38,0,7.66,KZ,1680326247
302,komsomolskiy,40.4272,71.7189,21.4,46,98,1.03,UZ,1680326270
303,waddan,29.1614,16.139,15.18,19,0,3.24,LY,1680326270
304,arzgir,45.3728,44.2206,6.64,59,90,1.39,RU,1680326270
305,santa lucia,27.9117,-15.5407,17.62,37,0,6.69,ES,1680326270
306,krikellos,38.95,21.1833,14.85,87,84,3.49,GR,1680326270
307,caravelas,-17.7125,-39.2481,23.48,88,7,2.67,BR,1680326270
308,tarko-sale,64.9225,77.785,-3.02,87,100,11.75,RU,1680326270
309,buala,-8.145,159.5921,28.54,74,74,1.57,SB,1680326270
310,lakes entrance,-37.8811,147.981,16.2,53,72,4.79,AU,1680326270
311,north bend,43.4065,-124.2243,9.02,94,100,8.75,US,1680326115
312,bereda,43.2686,-7.5406,8.65,100,100,1.51,ES,1680326270
313,viterbo,42.4167,12.0833,10.69,79,37,2.24,IT,1680326271
314,chokwe,-24.5333,32.9833,21.15,91,12,1.25,MZ,1680326271
315,macomb,40.4592,-90.6718,9.35,73,0,3.09,US,1680326271
316,farah,32.5,62.5,23.69,21,72,2.23,AF,1680326271
317,mahibadhoo,3.7833,72.9667,28.19,72,1,2.78,MV,1680326271
318,faanui,-16.4833,-151.75,28.51,68,100,2.58,PF,1680326271
319,anchorage,61.2181,-149.9003,1.63,66,100,2.06,US,1680325884
320,teya,60.3778,92.6267,-8.82,72,64,0.98,RU,1680325754
321,machali,-34.1833,-70.6667,18.58,24,0,1.04,CL,1680326271
322,norman wells,65.282,-126.8329,-10.98,73,100,1.54,CA,1680326271
323,bambous virieux,-20.3428,57.7575,28.45,75,12,6.01,MU,1680326271
324,zhangjiakou,40.81,114.8794,18.32,28,15,4.48,CN,1680326271
325,tongzi,28.7829,105.0877,22.76,55,23,2.07,CN,1680326271
326,egvekinot,66.3167,-179.1667,-11.64,95,100,1.39,RU,1680326271
327,mudon,16.2578,97.7164,33.56,47,14,5.48,MM,1680326272
328,macapa,0.0389,-51.0664,23.99,100,100,1.54,BR,1680326269
329,matagami,49.7502,-77.6328,-8.94,79,0,2.06,CA,1680326249
330,kontagora,10.3999,5.4695,24.66,14,76,2.13,NG,1680326272
331,ancud,-41.8697,-73.8203,12.45,91,100,9.33,CL,1680326272
332,pisco,-13.7,-76.2167,22.03,94,0,4.12,PE,1680326272
333,kortkeros,61.8106,51.5806,3.0,97,100,5.51,RU,1680326272
334,tura,25.5198,90.2201,23.26,64,100,0.47,IN,1680326272
335,oliveira dos brejinhos,-12.3169,-42.8961,19.15,62,4,0.86,BR,1680326272
336,chicama,-7.8447,-79.1469,25.3,78,94,2.84,PE,1680326272
337,santarem,-2.4431,-54.7083,25.07,94,75,3.6,BR,1680326272
338,wanning,18.8003,110.3967,27.46,74,57,4.16,CN,1680326272
339,prince rupert,54.3161,-130.3201,4.05,87,100,2.57,CA,1680326102
340,manggar,-2.8833,108.2667,29.49,65,91,2.29,ID,1680326273
341,egra,50.0796,12.3739,7.62,95,98,6.09,CZ,1680326273
342,lebu,-37.6167,-73.65,11.51,61,42,2.18,CL,1680326273
343,yerbogachen,61.2767,108.0108,-12.89,78,100,2.95,RU,1680326273
344,katangli,51.7102,143.2326,1.41,97,91,3.13,RU,1680326273
345,paita,-5.0892,-81.1144,26.88,78,88,2.1,PE,1680326273
346,aviemore,57.1955,-3.8259,2.47,89,99,1.8,GB,1680326273
347,constitucion,-35.3333,-72.4167,14.32,49,83,4.69,CL,1680326273
348,robertson,36.5167,-86.8667,21.99,93,100,7.72,US,1680326224
349,shenjiamen,29.9576,122.298,14.05,75,89,2.49,CN,1680326273
350,jieshi,22.8134,115.8257,22.06,79,85,3.05,CN,1680326274
351,safaga,26.7292,33.9365,16.66,55,0,7.96,EG,1680326274
352,husavik,66.0449,-17.3389,3.82,89,100,4.52,IS,1680326274
353,cortes,41.9395,-1.4396,13.03,67,92,3.22,ES,1680326274
354,washougal,45.5826,-122.3534,7.92,92,100,5.14,US,1680326274
355,trairi,-3.2778,-39.2689,23.43,88,97,1.94,BR,1680326224
356,caucaia,-3.7361,-38.6531,25.02,83,20,1.03,BR,1680326274
357,guhagar,17.4842,73.1929,30.89,39,7,4.57,IN,1680326274
358,pueblo nuevo,23.3833,-105.3833,12.8,34,100,2.52,MX,1680326274
359,muroto,33.2833,134.15,18.24,58,46,5.66,JP,1680326274
360,kuito,-12.3833,16.9333,14.54,97,100,0.99,AO,1680326274
361,bairiki,1.3292,172.9752,29.0,74,40,1.54,KI,1680326274
362,lazaro cardenas,17.9583,-102.2,24.08,70,28,1.0,MX,1680326274
363,inirida,3.8653,-67.9239,22.8,96,98,0.9,CO,1680326275
364,chara,56.9064,118.2631,-8.49,76,100,2.35,RU,1680326275
365,barao de melgaco,-16.1944,-55.9675,23.71,72,38,1.45,BR,1680326275
366,praia da vitoria,38.7333,-27.0667,19.14,77,40,6.68,PT,1680326275
367,lompoc,34.6391,-120.4579,9.4,80,0,9.39,US,1680326275
368,evensk,61.95,159.2333,-1.52,87,100,1.4,RU,1680326275
369,nishihara,26.1842,127.7558,22.81,68,75,7.2,JP,1680326275
370,tongren,27.7172,109.1853,24.78,56,59,1.15,CN,1680326275
371,malumfashi,11.7853,7.6218,21.18,16,68,3.64,NG,1680326275
372,toropets,56.4978,31.6353,0.39,81,100,2.83,RU,1680326275
373,teluknaga,-6.0989,106.6381,30.1,78,40,6.17,ID,1680326275
374,halifax,44.6453,-63.5724,2.0,84,100,4.12,CA,1680326275
375,shubarshi,48.5872,57.1869,11.72,27,75,10.88,KZ,1680326276
376,san policarpo,12.1791,125.5072,28.63,70,93,3.53,PH,1680326276
377,galle,6.0367,80.217,29.29,69,5,2.4,LK,1680326276
378,dunedin,-45.8742,170.5036,17.67,71,11,1.79,NZ,1680326276
379,victor harbor,-35.5667,138.6167,15.93,56,92,5.71,AU,1680326276
380,bonavista,48.6499,-53.1147,-1.95,90,49,4.52,CA,1680326276
381,dharchula,29.85,80.5333,15.74,74,99,1.05,IN,1680326276
382,foumban,5.7291,10.9001,18.77,77,96,0.73,CM,1680326276
383,nanning,22.8167,108.3167,20.25,87,100,3.13,CN,1680326276
384,nibong tebal,5.1659,100.4779,32.99,63,60,2.35,MY,1680326276
385,yatou,37.15,122.3833,17.95,25,13,3.53,CN,1680326277
386,santo antonio do sudoeste,-26.0736,-53.7253,20.45,86,47,2.06,BR,1680326277
387,noumea,-22.2763,166.4572,28.99,72,40,2.27,NC,1680325819
388,toila,59.4236,27.5025,-1.96,96,100,8.55,EE,1680326277
389,menongue,-14.6585,17.691,15.09,96,59,1.22,AO,1680326277
390,olafsvik,64.8945,-23.7142,3.75,83,96,7.01,IS,1680326277
391,orodara,10.9492,-4.9342,24.55,18,22,1.12,BF,1680326277
392,naze,28.3667,129.4833,21.51,85,75,5.96,JP,1680326277
393,maragogi,-9.0122,-35.2225,23.36,84,9,1.79,BR,1680326277
394,kuhdasht,33.535,47.6061,4.67,28,0,2.53,IR,1680326277
395,arona,28.0996,-16.681,20.29,25,0,9.77,ES,1680325696
396,vila franca do campo,37.7167,-25.4333,16.23,94,100,2.75,PT,1680326277
397,vestmanna,62.1564,-7.1664,4.51,100,100,6.17,FO,1680326278
398,maceio,-9.6658,-35.7353,22.69,100,20,2.06,BR,1680325602
399,jinka,5.65,36.65,18.19,85,98,1.42,ET,1680326278
400,nanortalik,60.1432,-45.2371,-6.48,91,53,1.62,GL,1680326278
401,mao,39.8885,4.2658,14.31,67,20,4.63,ES,1680326278
402,tanda,26.55,82.65,27.59,44,92,2.84,IN,1680326247
403,darnah,32.767,22.6367,15.25,44,23,4.89,LY,1680326278
404,cayenne,4.9333,-52.3333,25.02,83,20,1.54,GF,1680326278
405,daru,-9.0763,143.2092,29.89,66,83,3.56,PG,1680326278
406,banamba,13.55,-7.45,23.88,11,30,3.75,ML,1680326278
407,padang,-0.9492,100.3543,28.03,74,98,2.5,ID,1680325841
408,tiznit,29.5833,-9.5,18.57,31,0,0.75,MA,1680326279
409,giresun,40.5,38.5,-11.03,76,1,2.49,TR,1680326279
410,vanavara,60.34,102.2797,-12.15,72,92,2.71,RU,1680326279
411,mbanza-ngungu,-5.25,14.8667,19.81,97,100,1.27,CD,1680326279
412,leh,34.1667,77.5833,-0.07,79,100,2.65,IN,1680326279
413,kirakira,-10.4544,161.9205,28.59,77,100,1.88,SB,1680326279
414,iqaluit,63.7506,-68.5145,-11.15,79,100,4.12,CA,1680326279
415,la seyne-sur-mer,43.0982,5.8847,13.12,63,36,4.02,FR,1680326279
416,dagami,11.0608,124.9028,30.43,61,99,2.88,PH,1680326279
417,mortka,59.3322,66.0214,1.66,71,100,6.2,RU,1680326279
418,nebolchi,59.1239,33.3454,0.72,81,100,1.45,RU,1680326279
419,gurgaon,28.4667,77.0333,24.02,60,20,1.54,IN,1680326279
420,port blair,11.6667,92.75,30.02,66,40,3.09,IN,1680325995
421,alyangula,-13.8483,136.4192,30.79,56,21,3.02,AU,1680326280
422,terme,41.2092,36.9739,10.96,55,6,1.42,TR,1680326280
423,westport,41.1415,-73.3579,12.47,84,100,1.54,US,1680326117
424,ritchie,-29.038,24.6028,14.56,78,2,5.37,ZA,1680326280
425,bridgetown,13.1,-59.6167,25.27,83,40,7.72,BB,1680326280
426,takoradi,4.8845,-1.7554,25.4,81,100,1.87,GH,1680326280
427,poronaysk,49.2167,143.1167,1.72,94,91,0.66,RU,1680326280
428,cherskiy,68.75,161.3,-17.14,91,100,7.61,RU,1680326280
429,kieta,-6.2167,155.6333,28.51,75,88,1.94,PG,1680326280
430,novyy urgal,51.0736,132.5642,9.96,45,12,1.0,RU,1680326280
431,turayf,31.6725,38.6637,5.14,56,0,1.54,SA,1680326281
432,saint-augustin,51.226,-58.6502,-0.92,85,74,3.82,CA,1680326281
433,shelburne,44.0787,-80.2041,2.09,98,100,4.12,CA,1680326281
434,lasa,46.6166,10.7002,3.35,92,98,2.56,IT,1680326281
435,san andres,12.5847,-81.7006,27.01,69,20,4.63,CO,1680326281
436,shingu,33.7333,135.9833,18.86,51,52,2.25,JP,1680326281
437,seymchan,62.8833,152.4333,-8.89,87,100,3.82,RU,1680326281
438,rawlins,41.7911,-107.2387,-2.06,64,0,11.83,US,1680326281
439,banjar,-8.19,114.9675,27.89,79,98,1.54,ID,1680326281
440,bosaso,11.2842,49.1816,30.06,60,33,1.83,SO,1680326281
441,kralendijk,12.15,-68.2667,25.99,78,75,7.2,BQ,1680326095
442,aguimes,27.9054,-15.4461,20.35,37,0,6.71,ES,1680326282
443,coquimbo,-29.9533,-71.3436,14.85,100,0,2.06,CL,1680325424
444,pallavaram,12.9761,80.1836,31.95,66,40,5.14,IN,1680326282
445,kaoma,-14.7833,24.8,17.73,97,100,1.84,ZM,1680326282
446,batangafo,7.3008,18.2833,23.2,72,38,2.29,CF,1680326282
447,gorkovskiy,45.6542,41.199,4.31,67,6,1.89,RU,1680326282
448,lufilufi,-13.8745,-171.5986,29.88,70,23,1.49,WS,1680326282
449,auki,-8.7676,160.7034,26.75,83,84,0.3,SB,1680326282
450,verkhniye kigi,55.4083,58.6044,5.78,65,100,2.64,RU,1680326283
451,bouafle,6.9904,-5.7442,23.87,91,11,1.5,CI,1680326283
452,pangnirtung,66.1451,-65.7125,-19.66,85,16,3.36,CA,1680326283
453,nacogdoches,31.6002,-94.6335,22.02,97,0,0.0,US,1680326044
454,leopoldina,-21.5319,-42.6431,20.68,96,86,0.68,BR,1680326101
455,dumka,24.2667,87.25,28.58,39,93,1.16,IN,1680326085
456,zhigalovo,54.8097,105.1578,-7.47,58,89,3.52,RU,1680326283
457,gat,31.61,34.7642,13.0,100,59,1.61,IL,1680326283
458,miraflores,19.2167,-98.8083,21.13,48,39,1.13,MX,1680325711
459,cozumel,20.5083,-86.9458,25.04,83,0,2.57,MX,1680326231
460,hofn,64.2539,-15.2082,6.72,98,100,5.85,IS,1680326283
461,ogulin,45.2661,15.2286,6.45,95,100,0.79,HR,1680326284
462,harper,4.375,-7.7169,25.7,88,68,1.87,LR,1680326284
463,sulangan,11.1373,123.7228,27.92,75,100,4.15,PH,1680326284
464,nadym,65.5333,72.5167,-0.73,89,99,9.35,RU,1680326284
465,shitanjing,39.2342,106.3439,17.55,29,54,9.7,CN,1680326284
466,sakakah,29.9697,40.2064,10.76,39,0,2.43,SA,1680326284
467,cape canaveral,28.4058,-80.6048,24.43,81,0,5.66,US,1680326284
468,kanzaki,33.3,130.3667,24.51,35,0,5.66,JP,1680326284
469,tete,-16.1564,33.5867,23.05,94,75,1.54,MZ,1680326284
470,marawi,7.9986,124.2928,24.58,87,86,1.77,PH,1680326285
471,eydhafushi,5.1033,73.0708,28.33,66,0,3.97,MV,1680326285
472,sitka,57.0531,-135.33,3.94,87,100,4.12,US,1680326285
473,gisborne,-38.6533,178.0042,20.8,68,100,2.09,NZ,1680325990
474,mantua,45.1667,10.7833,7.83,89,41,1.34,IT,1680325735
475,tsuyama,35.05,134.0,22.46,29,8,2.11,JP,1680326285
476,severnoye,56.3491,78.3619,-3.96,70,22,2.33,RU,1680326285
477,ayan,56.45,138.1667,-1.89,92,100,1.42,RU,1680326285
478,west bay,19.3667,-81.4167,26.11,86,9,0.45,KY,1680326285
479,otradnoye,59.7775,30.8181,-0.97,98,100,3.22,RU,1680326072
480,broken hill,-31.95,141.4333,19.98,38,14,5.12,AU,1680326286
481,lalibela,12.0333,39.0333,17.73,56,85,0.88,ET,1680326286
482,rio grande,-32.035,-52.0986,16.55,59,1,8.65,BR,1680326286
483,mannarakkat,10.9833,76.4667,33.82,46,17,1.91,IN,1680326286
484,orlik,52.5178,99.825,-13.19,54,100,1.83,RU,1680326286
485,sarakhs,36.5449,61.1577,18.08,55,75,7.2,IR,1680326286
486,vestmannaeyjar,63.4427,-20.2734,5.43,69,97,6.08,IS,1680326286
487,san jose,37.3394,-121.895,10.14,72,0,2.57,US,1680326259
488,hay river,60.8156,-115.7999,-7.01,73,100,6.69,CA,1680326199
489,khuzhir,53.1939,107.3397,-5.8,46,45,6.4,RU,1680326287
490,vicuna,-30.0319,-70.7081,10.85,42,24,0.15,CL,1680326287
491,lakselv,70.0513,24.9718,-4.1,74,75,6.69,NO,1680326287
492,goderich,43.7501,-81.7165,10.18,100,100,5.14,CA,1680326287
493,mayumba,-3.432,10.6554,23.44,91,100,1.75,GA,1680326287
494,okhotsk,59.3833,143.3,-1.13,87,99,4.55,RU,1680326287
495,balabac,7.9868,117.0645,27.71,73,100,2.48,PH,1680326287
496,yankton,42.8711,-97.3973,-0.86,93,100,14.92,US,1680326288
497,ambon,-3.6954,128.1814,30.08,79,40,4.12,ID,1680325671
498,lorengau,-2.0226,147.2712,25.73,86,100,3.14,PG,1680326288
499,raga,8.4596,25.678,22.43,23,95,0.38,SS,1680326288
500,comodoro rivadavia,-45.8667,-67.5,15.92,25,0,5.14,AR,1680326288
501,joshimath,30.5667,79.5667,10.75,98,100,2.38,IN,1680326288
502,srisailam,16.0833,78.8667,33.72,35,15,1.32,IN,1680326288
503,awbari,26.5921,12.7805,15.02,18,0,3.42,LY,1680326288
504,macaubas,-13.0194,-42.6986,18.6,66,0,0.83,BR,1680326288
505,novotroitsk,51.203,58.3266,8.39,47,98,7.01,RU,1680326288
506,carutapera,-1.195,-46.02,23.92,92,99,2.75,BR,1680326289
507,arandis,-22.4167,14.9667,12.67,66,0,1.12,NA,1680326289
508,nioki,-2.7167,17.6833,20.46,93,92,0.95,CD,1680326289
509,bougouni,11.417,-7.479,25.24,17,75,0.71,ML,1680326289
510,odweyne,9.4092,45.064,25.41,47,73,5.6,SO,1680326289
511,ko samui,9.5357,99.9357,30.95,70,20,5.66,TH,1680326289
512,narsaq,60.9167,-46.05,-4.88,66,38,3.17,GL,1680326289
513,makhachkala,42.9764,47.5024,5.01,71,100,4.78,RU,1680326289
514,weligama,5.9667,80.4167,30.17,63,6,2.31,LK,1680326290
515,ramanuj ganj,23.8,83.7,29.67,30,30,2.92,IN,1680326290
516,morondava,-20.2833,44.2833,26.19,80,56,1.79,MG,1680326290
517,coihaique,-45.5752,-72.0662,5.34,100,100,2.06,CL,1680326290
518,taksimo,56.3444,114.8794,-5.15,48,100,4.22,RU,1680326290
519,damghan,36.1683,54.348,15.2,26,23,3.9,IR,1680326290
520,bocas del toro,9.3333,-82.25,24.14,83,46,3.29,PA,1680326290
521,san-pedro,4.7485,-6.6363,24.85,93,76,2.1,CI,1680326290
522,miyako,39.6367,141.9525,10.5,50,0,3.79,JP,1680326291
523,fuerte,17.5381,120.3644,32.28,80,2,4.26,PH,1680326291
524,erzin,36.9559,36.2,9.31,49,22,0.81,TR,1680326291
525,saint anthony,45.0205,-93.218,0.78,94,100,8.75,US,1680326115
526,pingxiang,27.6167,113.85,24.95,52,37,0.92,CN,1680326291
527,labytnangi,66.6572,66.4183,-0.57,98,100,5.1,RU,1680326291
528,beringovskiy,63.05,179.3167,-1.42,88,94,2.55,RU,1680326291
529,tiburon,37.8735,-122.4566,10.56,75,30,0.45,US,1680326291
530,peniche,39.3558,-9.3811,13.03,94,61,3.01,PT,1680325870
531,qui nhon,13.7667,109.2333,28.03,69,100,4.71,VN,1680326292
532,obo,5.3998,26.4869,20.37,86,100,2.16,CF,1680326292
533,suntar,62.1444,117.6319,-13.29,78,100,3.41,RU,1680326292
534,otane,-39.8833,176.6333,18.89,96,99,2.57,NZ,1680326292
535,galveston,29.3669,-94.9669,24.06,91,100,3.6,US,1680326192
536,susurluk,39.9136,28.1578,8.88,69,42,3.7,TR,1680326292
537,malanje,-9.5402,16.341,17.41,98,100,0.95,AO,1680326292
538,iskar,43.45,24.2667,4.92,87,75,1.03,BG,1680326292
539,khasan,42.4308,130.6434,7.12,75,10,4.5,RU,1680326293
540,dengzhou,37.8086,120.7508,15.95,35,54,3.64,CN,1680326293
541,acari,-15.4311,-74.6158,24.21,83,97,1.13,PE,1680326293
542,baragua,21.6967,-78.6328,22.8,80,1,3.62,CU,1680326293
543,karlshamn,56.1706,14.8619,-0.73,82,98,7.37,SE,1680326293
544,owando,-0.4819,15.8999,20.49,87,78,0.71,CG,1680326293
545,kamenka,51.3223,42.7678,3.35,79,65,6.31,RU,1680326293
546,zhigansk,66.7697,123.3711,-17.99,78,66,4.2,RU,1680326293
547,roma,43.2128,-75.4557,9.34,93,100,4.63,US,1680326191
548,kyshtovka,56.555,76.6271,-3.34,82,37,3.02,RU,1680326293
549,ketchikan,55.3422,-131.6461,3.26,93,100,3.6,US,1680326294
550,cassilandia,-19.1133,-51.7342,20.9,93,89,1.29,BR,1680326294
551,itacoatiara,-3.1431,-58.4442,23.06,97,100,0.79,BR,1680326294
552,koulikoro,14.0,-7.75,23.66,10,23,3.87,ML,1680326294
553,anjozorobe,-18.4,47.8667,17.8,86,73,2.13,MG,1680326294
554,chandvad,20.3333,74.25,26.69,26,6,2.31,IN,1680326294
555,north platte,41.1239,-100.7654,-1.05,65,0,10.8,US,1680326294
556,tabou,4.423,-7.3528,25.36,89,80,1.98,CI,1680326294
557,faxinal,-24.0003,-51.3194,17.43,96,0,1.03,BR,1680326294
558,ostrovnoy,68.0531,39.5131,-12.84,95,82,4.46,RU,1680326295
559,santa cruz de tenerife,28.4682,-16.2546,23.68,37,0,3.09,ES,1680326295
560,bumba,2.1833,22.4667,21.0,93,100,1.23,CD,1680326295
561,ust-nera,64.5667,143.2,-5.85,90,100,0.83,RU,1680326295
562,valdepenas,38.7621,-3.3848,8.43,79,54,3.42,ES,1680326295
563,kalanguy,51.0167,116.5167,4.74,39,85,5.77,RU,1680326295
564,kaniama,-7.5667,24.1833,17.74,98,99,0.94,CD,1680326295
565,cabra,37.4725,-4.4421,10.8,87,71,1.23,ES,1680326295
566,skjervoy,70.0311,20.9714,-1.0,56,100,10.34,NO,1680326296
567,dzhebariki-khaya,62.2167,135.8,-3.8,92,100,2.6,RU,1680326296
568,brantford,43.1334,-80.2664,10.23,97,100,0.89,CA,1680326296
569,jumla,29.2747,82.1838,7.97,80,90,1.91,NP,1680326296
570,talnakh,69.4865,88.3972,-13.77,94,100,8.81,RU,1680326296
571,mikhaylovskoye,51.8239,79.7172,-3.68,43,4,5.48,RU,1680326296
572,ryazanskaya,44.9553,39.5889,6.81,66,5,2.24,RU,1680326296
573,witu,-2.3889,40.4382,29.09,67,66,3.07,KE,1680326296
574,pavlogradka,54.2024,73.5592,-4.33,79,18,4.63,RU,1680326296
575,yerofey pavlovich,53.9667,121.9667,7.02,65,100,0.98,RU,1680326296
576,santiago,-33.4569,-70.6483,21.59,31,0,1.03,CL,1680326105
577,port hedland,-20.3167,118.5667,34.03,46,11,4.63,AU,1680326297
578,sakrand,26.1384,68.2736,26.97,57,2,2.06,PK,1680326297
579,buzmeyin,38.0507,58.2056,12.85,62,75,5.14,TM,1680326297
580,surt,31.2089,16.5887,17.37,33,3,5.08,LY,1680326297
581,achalpur,21.2572,77.5086,31.08,20,14,0.71,IN,1680326297
582,axim,4.8699,-2.2405,25.39,83,100,2.25,GH,1680326297
583,roblin,51.23,-101.3565,-15.14,98,61,1.8,CA,1680326115
584,hargeysa,9.56,44.065,23.69,58,42,2.26,SO,1680326297
585,poum,-20.2333,164.0167,26.83,77,6,1.91,NC,1680326297
586,touros,-5.1989,-35.4608,24.67,82,83,3.84,BR,1680326172
587,limulunga,-15.0969,23.1376,18.12,95,96,2.36,ZM,1680326298
588,barcelos,41.5388,-8.6151,14.08,94,98,1.39,PT,1680326298
589,qasigiannguit,68.8193,-51.1922,-19.86,86,12,2.12,GL,1680326298
590,novobessergenevka,47.1847,38.8462,5.09,79,13,6.5,RU,1680326298
591,bongor,10.2806,15.3722,27.2,21,96,2.95,TD,1680326298
592,nipawin,53.3668,-104.0009,-4.98,86,100,1.03,CA,1680326298
593,harrison,30.4091,-89.0436,23.04,95,100,3.09,US,1680326115
594,anadyr,64.75,177.4833,-2.72,92,100,4.0,RU,1680326299
595,matara,5.9485,80.5353,30.48,61,9,2.2,LK,1680326299
596,barcelona,41.3888,2.159,15.39,79,40,2.06,ES,1680326299
597,dali,25.7,100.1833,20.83,32,13,4.01,CN,1680326299
598,hovd,48.0056,91.6419,-9.15,39,100,4.38,MN,1680326299
599,catamarca,-28.4696,-65.7852,19.77,76,89,2.24,AR,1680326299
600,jiangyou,31.7667,104.7167,19.98,62,95,1.71,CN,1680326299
601,miquelon,47.0975,-56.3814,-1.0,79,51,2.84,PM,1680326299
602,ubala,4.7478,-72.5369,26.77,55,96,0.96,CO,1680326299
603,gizo,-8.103,156.8419,28.77,71,91,0.54,SB,1680326300
